{
"type": "FeatureCollection",
"name": "Locations_2",
"crs": { "type": "name", "properties": { "name": "urn:ogc:def:crs:OGC:1.3:CRS84" } },
"features": [
{ "type": "Feature", "properties": { "id": null, "Label_2": "Nike Lake Hotel" }, "geometry": { "type": "Point", "coordinates": [ 7.512421293189335, 6.508690701806003 ] } },
{ "type": "Feature", "properties": { "id": null, "Label_2": "Elim Estate" }, "geometry": { "type": "Point", "coordinates": [ 7.526675170911866, 6.542486971462122 ] } },
{ "type": "Feature", "properties": { "id": null, "Label_2": "Police Station" }, "geometry": { "type": "Point", "coordinates": [ 7.529337626431789, 6.555228529300881 ] } },
{ "type": "Feature", "properties": { "id": null, "Label_2": "Ogbeke-Nike" }, "geometry": { "type": "Point", "coordinates": [ 7.536946188344425, 6.576237947886173 ] } },
{ "type": "Feature", "properties": { "id": null, "Label_2": "Ugwuogo-Nike" }, "geometry": { "type": "Point", "coordinates": [ 7.55676308288501, 6.624758349433057 ] } },
{ "type": "Feature", "properties": { "id": null, "Label_2": "Fr. Mbaka-Rapha Farms" }, "geometry": { "type": "Point", "coordinates": [ 7.508957936415447, 6.597977567823587 ] } }
]
}
